id,province_id,name,latitude,longitude
1101,11,KAB. SIMEULUE,2.61667,96.08333
1102,11,KAB. ACEH SINGKIL,2.41667,97.91667
1103,11,KAB. ACEH SELATAN,3.16667,97.41667
1104,11,KAB. ACEH TENGGARA,3.36667,97.7
1105,11,KAB. ACEH TIMUR,4.63333,97.63333
1106,11,KAB. ACEH TENGAH,4.51,96.855
1107,11,KAB. ACEH BARAT,4.45,96.16667
1108,11,KAB. ACEH BESAR,5.38333,95.51667
1109,11,KAB. PIDIE,5.08,96.11
1110,11,KAB. BIREUEN,5.08333,96.58333
1111,11,KAB. ACEH UTARA,4.97,97.14
1112,11,KAB. ACEH BARAT DAYA,3.83333,96.88333
1113,11,KAB. GAYO LUES,3.95,97.39
1114,11,KAB. ACEH TAMIANG,4.25,97.96667
1115,11,KAB. NAGAN RAYA,4.16667,96.51667
1116,11,KAB. ACEH JAYA,4.86,95.64
1117,11,KAB. BENER MERIAH,4.73015,96.86156
1118,11,KAB. PIDIE JAYA,5.15,96.21667
1171,11,KOTA BANDA ACEH,5.54167,95.33333
1172,11,KOTA SABANG,5.82164,95.31086
1173,11,KOTA LANGSA,4.47,97.93
1174,11,KOTA LHOKSEUMAWE,5.13333,97.06667
1175,11,KOTA SUBULUSSALAM,2.75,97.93333
1201,12,KAB. NIAS,1.03333,97.76667
1202,12,KAB. MANDAILING NATAL,0.78378,99.25495
1203,12,KAB. TAPANULI SELATAN,1.51667,99.25
1204,12,KAB. TAPANULI TENGAH,1.9,98.66667
1205,12,KAB. TAPANULI UTARA,2.0028,99.0707
1206,12,KAB. TOBA SAMOSIR,2.39793,99.21678
1207,12,KAB. LABUHAN BATU,2.26667,100.1
1208,12,KAB. ASAHAN,2.78333,99.55
1209,12,KAB. SIMALUNGUN,2.9,99
1210,12,KAB. DAIRI,2.86667,98.23333
1211,12,KAB. KARO,3.11667,98.3
1212,12,KAB. DELI SERDANG,3.41667,98.66667
1213,12,KAB. LANGKAT,3.71667,98.21667
1214,12,KAB. NIAS SELATAN,0.77,97.75
1215,12,KAB. HUMBANG HASUNDUTAN,2.26551,98.50376
1216,12,KAB. PAKPAK BHARAT,2.56667,98.28333
1217,12,KAB. SAMOSIR,2.64025,98.71525
1218,12,KAB. SERDANG BEDAGAI,3.36667,99.03333
1219,12,KAB. BATU BARA,3.16166,99.52652
1220,12,KAB. PADANG LAWAS UTARA,1.46011,99.67346
1221,12,KAB. PADANG LAWAS,1.44684,99.99207
1222,12,KAB. LABUHAN BATU SELATAN,1.983,100.0976
1223,12,KAB. LABUHAN BATU UTARA,2.33349,99.63776
1224,12,KAB. NIAS UTARA,1.33037,97.31964
1225,12,KAB. NIAS BARAT,1.05966,97.58606
1271,12,KOTA SIBOLGA,1.73333,98.8
1272,12,KOTA TANJUNG BALAI,2.95833,99.79167
1273,12,KOTA PEMATANG SIANTAR,2.96667,99.05
1274,12,KOTA TEBING TINGGI,3.325,99.14167
1275,12,KOTA MEDAN,3.65,98.66667
1276,12,KOTA BINJAI,3.8,108.23333
1277,12,KOTA PADANG SIDEMPUAN,1.37375,99.26843
1278,12,KOTA GUNUNGSITOLI,1.32731,97.55018
1301,13,KAB. KEPULAUAN MENTAWAI,1.98917,99.51889
1302,13,KAB. PESISIR SELATAN,-1.58333,100.85
1303,13,KAB. SOLOK,-0.96667,100.81667
1304,13,KAB. SIJUNJUNG,-1.1827,101.6056
1305,13,KAB. TANAH DATAR,-0.4555,100.5771
1306,13,KAB. PADANG PARIAMAN,-0.6,100.28333
1307,13,KAB. AGAM,-0.25,100.16667
1308,13,KAB. LIMA PULUH KOTA,-0.0168,100.5872
1309,13,KAB. PASAMAN,0.42503,99.94606
1310,13,KAB. SOLOK SELATAN,-1.23333,101.417
1311,13,KAB. DHARMASRAYA,-1.05,101.367
1312,13,KAB. PASAMAN BARAT,0.28152,99.51965
1371,13,KOTA PADANG,-0.98333,100.45
1372,13,KOTA SOLOK,-0.76667,100.61667
1373,13,KOTA SAWAH LUNTO,-0.6,100.75
1374,13,KOTA PADANG PANJANG,-0.45,100.43333
1375,13,KOTA BUKITTINGGI,-0.275,100.375
1376,13,KOTA PAYAKUMBUH,-0.23333,100.63333
1377,13,KOTA PARIAMAN,-0.62682,100.12047
1401,14,KAB. KUANTAN SINGINGI,-0.47532,101.45857
1402,14,KAB. INDRAGIRI HULU,-0.55,102.31667
1403,14,KAB. INDRAGIRI HILIR,-0.33333,103.16667
1404,14,KAB. PELALAWAN,0.20822,102.18607
1405,14,KAB. SIAK,0.97453,102.01355
1406,14,KAB. KAMPAR,0.2344,101.2131
1407,14,KAB. ROKAN HULU,0.88333,100.48333
1408,14,KAB. BENGKALIS,0.9838,102.5096
1409,14,KAB. ROKAN HILIR,2.16599,100.82514
1410,14,KAB. KEPULAUAN MERANTI,0.97488,102.69539
1471,14,KOTA PEKANBARU,0.53333,101.46667
1473,14,KOTA DUMAI,1.61592,101.4917
1501,15,KAB. KERINCI,-2.03333,101.53333
1502,15,KAB. MERANGIN,-2.06933,102.13303
1503,15,KAB. SAROLANGUN,-2.3,102.65
1504,15,KAB. BATANG HARI,-1.75,103.11667
1505,15,KAB. MUARO JAMBI,-1.55214,103.82163
1506,15,KAB. TANJUNG JABUNG TIMUR,-1.13198,103.61755
1507,15,KAB. TANJUNG JABUNG BARAT,-1.1544,103.24402
1508,15,KAB. TEBO,-1.45576,102.37473
1509,15,KAB. BUNGO,-1.50222,101.96
1571,15,KOTA JAMBI,-1.61667,103.65
1572,15,KOTA SUNGAI PENUH,-2.10896,101.32175
1601,16,KAB. OGAN KOMERING ULU,-4.13333,104.03333
1602,16,KAB. OGAN KOMERING ILIR,-3.36667,105.36667
1603,16,KAB. MUARA ENIM,-4.2327,103.6141
1604,16,KAB. LAHAT,-3.7864,103.5428
1605,16,KAB. MUSI RAWAS,-3.08333,103.2
1606,16,KAB. MUSI BANYU ASIN,-2.41667,103.75
1607,16,KAB. BANYU ASIN,-2.88333,104.38306
1608,16,KAB. OGAN KOMERING ULU SELATAN,-4.65728,104.00659
1609,16,KAB. OGAN KOMERING ULU TIMUR,-3.85679,104.75209
1610,16,KAB. OGAN ILIR,-3.43186,104.62727
1611,16,KAB. EMPAT LAWANG,3.22667,99.09256
1612,16,KAB. PENUKAL ABAB LEMATANG ILIR,-3.21342,104.08722
1613,16,KAB. MUSI RAWAS UTARA,-2.48533,103.29346
1671,16,KOTA PALEMBANG,-3,104.71667
1672,16,KOTA PRABUMULIH,-3.46202,104.2229
1673,16,KOTA PAGAR ALAM,-4.13055,103.26822
1674,16,KOTA LUBUK LINGGAU,-3.29308,102.85503
1701,17,KAB. BENGKULU SELATAN,-4.35,103.03333
1702,17,KAB. REJANG LEBONG,-3.43333,102.71667
1703,17,KAB. BENGKULU UTARA,-3.33333,102.05
1704,17,KAB. KAUR,-4.78179,103.36109
1705,17,KAB. SELUMA,-3.96644,102.47429
1706,17,KAB. MUKOMUKO,-3.07438,101.54766
1707,17,KAB. LEBONG,-3.24278,102.3349
1708,17,KAB. KEPAHIANG,-3.60194,102.56424
1709,17,KAB. BENGKULU TENGAH,-3.20679,102.12616
1771,17,KOTA BENGKULU,-3.81667,102.31667
1801,18,KAB. LAMPUNG BARAT,-5.14904,104.19309
1802,18,KAB. TANGGAMUS,-5.38508,104.62349
1803,18,KAB. LAMPUNG SELATAN,-5.4531,104.9877
1804,18,KAB. LAMPUNG TIMUR,-5.10273,105.68003
1805,18,KAB. LAMPUNG TENGAH,-4.86667,105.26667
1806,18,KAB. LAMPUNG UTARA,-4.81667,104.8
1807,18,KAB. WAY KANAN,-4.44705,104.52753
1808,18,KAB. TULANGBAWANG,-4.20604,105.57999
1809,18,KAB. PESAWARAN,-5.4298,105.17899
1810,18,KAB. PRINGSEWU,-5.42211,104.93454
1811,18,KAB. MESUJI,-4.0439,105.4013
1812,18,KAB. TULANG BAWANG BARAT,-4.43975,105.0444
1813,18,KAB. PESISIR BARAT,-5.19323,103.93976
1871,18,KOTA BANDAR LAMPUNG,-5.41667,105.25
1872,18,KOTA METRO,-5.11856,105.29949
1901,19,KAB. BANGKA,-1.91667,105.93333
1902,19,KAB. BELITUNG,-2.86667,107.7
1903,19,KAB. BANGKA BARAT,-1.95839,105.53741
1904,19,KAB. BANGKA TENGAH,-2.33989,106.1142
1905,19,KAB. BANGKA SELATAN,-2.66803,106.01257
1906,19,KAB. BELITUNG TIMUR,-2.9627,108.15216
1971,19,KOTA PANGKAL PINANG,-2.13333,106.13333
2101,21,KAB. KARIMUN,0.80764,103.41911
2102,21,KAB. BINTAN,0.95,104.61944
2103,21,KAB. NATUNA,4.71417,107.97639
2104,21,KAB. LINGGA,0.2,104.61667
2105,21,KAB. KEPULAUAN ANAMBAS,3,106
2171,21,KOTA BATAM,1.05211,104.02851
2172,21,KOTA TANJUNG PINANG,0.91683,104.44329
3101,31,KAB. KEPULAUAN SERIBU,-5.5985,106.55271
3171,31,KOTA JAKARTA SELATAN,-6.266,106.8135
3172,31,KOTA JAKARTA TIMUR,-6.2521,106.884
3173,31,KOTA JAKARTA PUSAT,-6.1777,106.8403
3174,31,KOTA JAKARTA BARAT,-6.1676,106.7673
3175,31,KOTA JAKARTA UTARA,-6.1339,106.8823
3201,32,KAB. BOGOR,-6.58333,106.71667
3202,32,KAB. SUKABUMI,-7.06667,106.7
3203,32,KAB. CIANJUR,-6.7725,107.08306
3204,32,KAB. BANDUNG,-7.1,107.6
3205,32,KAB. GARUT,-7.38333,107.76667
3206,32,KAB. TASIKMALAYA,-7.5,108.13333
3207,32,KAB. CIAMIS,-7.28333,108.41667
3208,32,KAB. KUNINGAN,-7,108.55
3209,32,KAB. CIREBON,-6.8,108.56667
3210,32,KAB. MAJALENGKA,-6.81667,108.28333
3211,32,KAB. SUMEDANG,-6.81667,107.98333
3212,32,KAB. INDRAMAYU,-6.45,108.16667
3213,32,KAB. SUBANG,-6.50833,107.7025
3214,32,KAB. PURWAKARTA,-6.58333,107.45
3215,32,KAB. KARAWANG,-6.26667,107.41667
3216,32,KAB. BEKASI,-6.24667,107.10833
3217,32,KAB. BANDUNG BARAT,-6.83333,107.48333
3218,32,KAB. PANGANDARAN,-7.6673,108.64037
3271,32,KOTA BOGOR,-6.59167,106.8
3272,32,KOTA SUKABUMI,-6.95,106.93333
3273,32,KOTA BANDUNG,-6.9175,107.62444
3274,32,KOTA CIREBON,-6.75,108.55
3275,32,KOTA BEKASI,-6.28333,106.98333
3276,32,KOTA DEPOK,-6.4,106.81667
3277,32,KOTA CIMAHI,-6.89167,107.55
3278,32,KOTA TASIKMALAYA,-7.35,108.21667
3279,32,KOTA BANJAR,-7.36996,108.53209
3301,33,KAB. CILACAP,-7.57417,108.98861
3302,33,KAB. BANYUMAS,-7.45,109.16667
3303,33,KAB. PURBALINGGA,-7.28417,109.35028
3304,33,KAB. BANJARNEGARA,-7.35111,109.5875
3305,33,KAB. KEBUMEN,-7.63917,109.66056
3306,33,KAB. PURWOREJO,-7.7,109.96667
3307,33,KAB. WONOSOBO,-7.36139,109.92667
3308,33,KAB. MAGELANG,-7.4275,110.16194
3309,33,KAB. BOYOLALI,-7.5,110.7
3310,33,KAB. KLATEN,-7.68333,110.61667
3311,33,KAB. SUKOHARJO,-7.68333,110.83333
3312,33,KAB. WONOGIRI,-7.91667,111
3313,33,KAB. KARANGANYAR,-7.62806,111.0625
3314,33,KAB. SRAGEN,-7.41278,110.935
3315,33,KAB. GROBOGAN,-7.11667,110.91667
3316,33,KAB. BLORA,-7.06667,111.38333
3317,33,KAB. REMBANG,-6.78333,111.46667
3318,33,KAB. PATI,-6.76667,111.1
3319,33,KAB. KUDUS,-6.8,110.86667
3320,33,KAB. JEPARA,-6.58333,110.76667
3321,33,KAB. DEMAK,-6.8993,110.6122
3322,33,KAB. SEMARANG,-7.20667,110.44139
3323,33,KAB. TEMANGGUNG,-7.25,110.11667
3324,33,KAB. KENDAL,-7.0256,110.1685
3325,33,KAB. BATANG,-7.03333,109.88333
3326,33,KAB. PEKALONGAN,-7.0319,109.624
3327,33,KAB. PEMALANG,-7.03333,109.4
3328,33,KAB. TEGAL,-7.03333,109.16667
3329,33,KAB. BREBES,-7.05,108.9
3371,33,KOTA MAGELANG,-7.5,110.225
3372,33,KOTA SURAKARTA,-7.55,110.81667
3373,33,KOTA SALATIGA,-7.33278,110.48333
3374,33,KOTA SEMARANG,-7.03333,110.38333
3375,33,KOTA PEKALONGAN,-6.9,109.68333
3376,33,KOTA TEGAL,-6.8686,109.1129
3401,34,KAB. KULON PROGO,-7.645,110.02694
3402,34,KAB. BANTUL,-7.9,110.36667
3403,34,KAB. GUNUNG KIDUL,-7.98333,110.61667
3404,34,KAB. SLEMAN,-7.68167,110.32333
3471,34,KOTA YOGYAKARTA,-7.8,110.375
3501,35,KAB. PACITAN,-8.13333,111.16667
3502,35,KAB. PONOROGO,-7.93333,111.5
3503,35,KAB. TRENGGALEK,-8.16667,111.61667
3504,35,KAB. TULUNGAGUNG,-8.11667,111.91667
3505,35,KAB. BLITAR,-8.13333,112.25
3506,35,KAB. KEDIRI,-7.83333,112.16667
3507,35,KAB. MALANG,-8.16667,112.66667
3508,35,KAB. LUMAJANG,-8.11667,113.15
3509,35,KAB. JEMBER,-8.25,113.65
3510,35,KAB. BANYUWANGI,-8.33333,114.2
3511,35,KAB. BONDOWOSO,-7.9404,113.9834
3512,35,KAB. SITUBONDO,-7.71667,114.05
3513,35,KAB. PROBOLINGGO,-7.86667,113.31667
3514,35,KAB. PASURUAN,-7.73333,112.83333
3515,35,KAB. SIDOARJO,-7.45,112.7
3516,35,KAB. MOJOKERTO,-7.55,112.5
3517,35,KAB. JOMBANG,-7.55,112.25
3518,35,KAB. NGANJUK,-7.6,111.93333
3519,35,KAB. MADIUN,-7.61667,111.65
3520,35,KAB. MAGETAN,-7.64472,111.35917
3521,35,KAB. NGAWI,-7.47444,111.33444
3522,35,KAB. BOJONEGORO,-7.25,111.8
3523,35,KAB. TUBAN,-6.96667,111.9
3524,35,KAB. LAMONGAN,-7.13333,112.31667
3525,35,KAB. GRESIK,-7.1933,112.553
3526,35,KAB. BANGKALAN,-7.05,112.93333
3527,35,KAB. SAMPANG,-7.05,113.25
3528,35,KAB. PAMEKASAN,-7.06667,113.5
3529,35,KAB. SUMENEP,-7.11667,114.33333
3571,35,KOTA KEDIRI,-7.83333,112.01667
3572,35,KOTA BLITAR,-8.1,112.16667
3573,35,KOTA MALANG,-7.975,112.63333
3574,35,KOTA PROBOLINGGO,-7.78333,113.21667
3575,35,KOTA PASURUAN,-7.65,112.9
3576,35,KOTA MOJOKERTO,-7.46667,112.43333
3577,35,KOTA MADIUN,-7.63333,111.53333
3578,35,KOTA SURABAYA,-7.26667,112.71667
3579,35,KOTA BATU,-7.83272,112.53751
3601,36,KAB. PANDEGLANG,-6.63333,105.75
3602,36,KAB. LEBAK,-6.65,106.21667
3603,36,KAB. TANGERANG,-6.2,106.46667
3604,36,KAB. SERANG,-6.15,106
3671,36,KOTA TANGERANG,-6.17944,106.62991
3672,36,KOTA CILEGON,-6.01667,106.01667
3673,36,KOTA SERANG,-6.12563,106.14999
3674,36,KOTA TANGERANG SELATAN,-6.29373,106.71244
5101,51,KAB. JEMBRANA,-8.3,114.66667
5102,51,KAB. TABANAN,-8.43333,115.06667
5103,51,KAB. BADUNG,-8.51667,115.2
5104,51,KAB. GIANYAR,-8.46667,115.28333
5105,51,KAB. KLUNGKUNG,-8.55,115.4
5106,51,KAB. BANGLI,-8.28333,115.35
5107,51,KAB. KARANG ASEM,-8.3891,115.5393
5108,51,KAB. BULELENG,-8.25,114.96667
5171,51,KOTA DENPASAR,-8.66667,115.21663
5201,52,KAB. LOMBOK BARAT,-8.69583,116.11667
5202,52,KAB. LOMBOK TENGAH,-8.7,116.3
5203,52,KAB. LOMBOK TIMUR,-8.53333,116.53333
5204,52,KAB. SUMBAWA,-8.7439,117.3324
5205,52,KAB. DOMPU,-8.5094,118.4816
5206,52,KAB. BIMA,-8.6,118.61667
5207,52,KAB. SUMBAWA BARAT,-8.75159,116.92132
5208,52,KAB. LOMBOK UTARA,-8.35214,116.40152
5271,52,KOTA MATARAM,-8.5833,116.1167
5272,52,KOTA BIMA,-8.46728,118.75259
5301,53,KAB. SUMBA BARAT,-9.56667,119.45
5302,53,KAB. SUMBA TIMUR,-9.88333,120.25
5303,53,KAB. KUPANG,-9.91667,123.83333
5304,53,KAB. TIMOR TENGAH SELATAN,-9.83333,124.4
5305,53,KAB. TIMOR TENGAH UTARA,-9.33136,124.51904
5306,53,KAB. BELU,-9.41258,124.95066
5307,53,KAB. ALOR,-8.3,124.56667
5308,53,KAB. LEMBATA,-8.41396,123.55225
5309,53,KAB. FLORES TIMUR,-8.24224,122.96817
5310,53,KAB. SIKKA,-8.66667,122.36667
5311,53,KAB. E9427,94,KAB. SUPIORI
9428,94,KAB. MAMBERAMO RAYA
9429,94,KAB. NDUGA
9430,94,KAB. LANNY JAYA
9431,94,KAB. MAMBERAMO TENGAH
9432,94,KAB. YALIMO
9433,94,KAB. PUNCAK
9434,94,KAB. DOGIYAI
9435,94,KAB. INTAN JAYA
9436,94,KAB. DEIYAI
9471,94,KOTA J SUMBA BARAT DAYA,-9.56216,119.08905
5318,53,KAB. NAGEKEO,-8.8721,121.20963
5319,53,KAB. MANGGARAI TIMUR,-8.55533,120.59761
5320,53,KAB. SABU RAIJUA,-10.56286,121.78894
5321,53,KAB. MALAKA,-9.5632,124.89481
5371,53,KOTA KUPANG,-10.21667,123.6
6101,61,KAB. SAMBAS,1.41667,109.33333
6102,61,KAB. BENGKAYANG,1.06911,109.66393
6103,61,KAB. LANDAK,0.42373,109.75917
6104,61,KAB. MEMPAWAH,0.25,109.16667
6105,61,KAB. SANGGAU,0.25472,110.45
6106,61,KAB. KETAPANG,-1.58333,110.5
6107,61,KAB. SINTANG,-0.08333,112.08333
6108,61,KAB. KAPUAS HULU,0.81667,112.76667
6109,61,KAB. SEKADAU,0.03485,110.95066
6110,61,KAB. MELAWI,-0.33617,111.698
6111,61,KAB. KAYONG UTARA,-1.43711,110.79781
6112,61,KAB. KUBU RAYA,0.01637,109.33731
6171,61,KOTA PONTIANAK,-0.08333,109.36667
6172,61,KOTA SINGKAWANG,0.90734,109.00103
6201,62,KAB. KOTAWARINGIN BARAT,-2.4,111.73333
6202,62,KAB. KOTAWARINGIN TIMUR,-2.08333,112.75
6203,62,KAB. KAPUAS,-2.01667,114.38333
6204,62,KAB. BARITO SELATAN,-1.86667,114.73333
6205,62,KAB. BARITO UTARA,-0.98333,115.1
6206,62,KAB. SUKAMARA,-2.62675,111.23681
6207,62,KAB. LAMANDAU,-1.83828,111.2869
6208,62,KAB. SERUYAN,-2.33333,112.25
6209,62,KAB. KATINGAN,-2.06667,113.4
6210,62,KAB. PULANG PISAU,-3.11858,113.8623
6211,62,KAB. GUNUNG MAS,-0.95,113.5
6212,62,KAB. BARITO TIMUR,-1.93333,115.1
6213,62,KAB. MURUNG RAYA,-0.01667,114.26667
6271,62,KOTA PALANGKA RAYA,-1.76979,113.73126
6301,63,KAB. TANAH LAUT,-3.88333,114.86667
6302,63,KAB. KOTA BARU,-3,116
6303,63,KAB. BANJAR,-3.31667,115.08333
6304,63,KAB. BARITO KUALA,-3.08333,114.61667
6305,63,KAB. TAPIN,-2.91667,115.03333
6306,63,KAB. HULU SUNGAI SELATAN,-2.75,115.2
6307,63,KAB. HULU SUNGAI TENGAH,-2.61667,115.41667
6308,63,KAB. HULU SUNGAI UTARA,-2.45,115.13333
6309,63,KAB. TABALONG,-1.88333,115.5
6310,63,KAB. TANAH BUMBU,-3.45413,115.70372
6311,63,KAB. BALANGAN,-2.32314,115.62922
6371,63,KOTA BANJARMASIN,-3.32444,114.59102
6372,63,KOTA BANJAR BARU,-3.41667,114.83333
6401,64,KAB. PASER,-1.43517,116.23535
6402,64,KAB. KUTAI BARAT,-0.59417,115.51575
6403,64,KAB. KUTAI KARTANEGARA,-0.44019,116.98139
6404,64,KAB. KUTAI TIMUR,1.03769,117.83112
6405,64,KAB. BERAU,2,117.3
6409,64,KAB. PENAJAM PASER UTARA,-1.25,116.83333
6411,64,KAB. MAHAKAM HULU,0.37822,115.38048
6471,64,KOTA BALIKPAPAN,-1.16667,116.88333
6472,64,KOTA SAMARINDA,-0.43333,117.18333
6474,64,KOTA BONTANG,0.12526,117.49603
6501,65,KAB. MALINAU,2.45,115.68333
6502,65,KAB. BULUNGAN,3,117.16667
6503,65,KAB. TANA TIDUNG,3.55,117.25
6504,65,KAB. NUNUKAN,4.13333,116.7
6571,65,KOTA TARAKAN,3.36667,117.6
7101,71,KAB. BOLAANG MONGONDOW,0.75,124.08333
7102,71,KAB. MINAHASA,1.2537,124.83
7103,71,KAB. KEPULAUAN SANGIHE,3.5,125.55
7104,71,KAB. KEPULAUAN TALAUD,4.31178,126.78085
7105,71,KAB. MINAHASA SELATAN,1.21291,124.59708
7106,71,KAB. MINAHASA UTARA,1.4025,124.96
7107,71,KAB. BOLAANG MONGONDOW UTARA,0.78527,123.41766
7108,71,KAB. SIAU TAGULANDANG BIARO,2.11728,125.37512
7109,71,KAB. MINAHASA TENGGARA,1.05633,124.7925
7110,71,KAB. BOLAANG MONGONDOW SELATAN,0.40912,123.75961
7111,71,KAB. BOLAANG MONGONDOW TIMUR,0.72073,124.50256
7171,71,KOTA MANADO,1.51667,124.88333
7172,71,KOTA BITUNG,1.48333,125.15
7173,71,KOTA TOMOHON,1.31307,124.83404
7174,71,KOTA KOTAMOBAGU,0.68915,124.32678
7201,72,KAB. BANGGAI KEPULAUAN,-1.6424,123.54881
7202,72,KAB. BANGGAI,-1.2835,122.8892
7203,72,KAB. MOROWALI,-1.89342,121.25473
7204,72,KAB. POSO,-1.65,120.5
7205,72,KAB. DONGGALA,-0.58333,119.85
7206,72,KAB. TOLI-TOLI,1.30862,120.88643
7207,72,KAB. BUOL,0.75,120.75
7208,72,KAB. PARIGI MOUTONG,0.3368,120.17841
7209,72,KAB. TOJO UNA-UNA,-1.2036,121.48201
7210,72,KAB. SIGI,-1.385,119.96694
7211,72,KAB. BANGGAI LAUT,-1.61841,123.49388
7212,72,KAB. MOROWALI UTARA,-1.7207,121.24649
7271,72,KOTA PALU,-0.86972,119.9
7301,73,KAB. KEPULAUAN SELAYAR,-6.81667,120.8
7302,73,KAB. BULUKUMBA,-5.41667,120.23333
7303,73,KAB. BANTAENG,-5.48333,119.98333
7304,73,KAB. JENEPONTO,-5.63333,119.73333
7305,73,KAB. TAKALAR,-5.41667,119.51667
7306,73,KAB. GOWA,-5.31667,119.75
7307,73,KAB. SINJAI,-5.21667,120.15
7308,73,KAB. MAROS,-5.05,119.71667
7309,73,KAB. PANGKAJENE DAN KEPULAUAN,-4.7827,119.5506
7310,73,KAB. BARRU,-4.43333,119.68333
7311,73,KAB. BONE,-4.7,120.13333
7312,73,KAB. SOPPENG,-4.3842,119.89
7313,73,KAB. WAJO,-4,120.16667
7314,73,KAB. SIDENRENG RAPPANG,-3.85,119.96667
7315,73,KAB. PINRANG,-3.61667,119.6
7316,73,KAB. ENREKANG,-3.5,119.86667
7317,73,KAB. LUWU,-2.5577,121.3242
7318,73,KAB. TANA TORAJA,-3.0024,119.79655
7322,73,KAB. LUWU UTARA,-2.6,120.25
7325,73,KAB. LUWU TIMUR,-2.50957,120.3978
7326,73,KAB. TORAJA UTARA,-2.92738,119.79218
7371,73,KOTA MAKASSAR,-5.15,119.45
7372,73,KOTA PARE-PARE,-4.03333,119.65
7373,73,KOTA PALOPO,-2.97841,120.11078
7401,74,KAB. BUTON,-5.31667,122.58333
7402,74,KAB. MUNA,-4.96667,122.66667
7403,74,KAB. KONAWE,-3.91717,122.08823
7404,74,KAB. KOLAKA,-4.08333,121.66667
7405,74,KAB. KONAWE SELATAN,-4.19191,122.44854
7406,74,KAB. BOMBANA,-4.6257,121.81641
7407,74,KAB. WAKATOBI,-5.31934,123.5948
7408,74,KAB. KOLAKA UTARA,-3.10452,121.12427
7409,74,KAB. BUTON UTARA,-5.01457,122.93015
7410,74,KAB. KONAWE UTARA,-3.41552,121.99081
7411,74,KAB. KOLAKA TIMUR,-4.01807,121.86172
7412,74,KAB. KONAWE KEPULAUAN,-4.11656,123.10181
7413,74,KAB. MUNA BARAT,-4.83333,122.48333
7414,74,KAB. BUTON TENGAH,-5.31667,122.33333
7415,74,KAB. BUTON SELATAN,-5.56667,122.7
7471,74,KOTA KENDARI,-3.98333,122.5
7472,74,KOTA BAUBAU,-5.477,122.6166
7501,75,KAB. BOALEMO,0.62689,122.3568
7502,75,KAB. GORONTALO,0.5728,122.2337
7503,75,KAB. POHUWATO,0.7098,121.59582
7504,75,KAB. BONE BOLANGO,0.50296,123.27501
7505,75,KAB. GORONTALO UTARA,0.77,122.31667
7571,75,KOTA GORONTALO,0.53333,123.1
7601,76,KAB. MAJENE,-3.15,118.86667
7602,76,KAB. POLEWALI MANDAR,-3.3,119.16667
7603,76,KAB. MAMASA,-2.96492,119.30631
7604,76,KAB. MAMUJU,-2.5,119.41667
7605,76,KAB. MAMUJU UTARA,-1.51639,119.42139
7606,76,KAB. MAMUJU TENGAH,-2.8212,119.2662
8101,81,KAB. MALUKU TENGGARA BARAT,-7.61186,131.38
8102,81,KAB. MALUKU TENGGARA,-5.75,132.73334
8103,81,KAB. MALUKU TENGAH,-3.29167,128.9675
8104,81,KAB. BURU,-3.32767,126.68413
8105,81,KAB. KEPULAUAN ARU,-6.17059,134.46991
8106,81,KAB. SERAM BAGIAN BARAT,-3.1027,128.42996
8107,81,KAB. SERAM BAGIAN TIMUR,-3.39851,130.39166
8108,81,KAB. MALUKU BARAT DAYA,-7.8296,126.17386
8109,81,KAB. BURU SELATAN,-3.52187,126.59271
8171,81,KOTA AMBON,-3.7,128.18333
8172,81,KOTA TUAL,-5.64301,132.74934
8201,82,KAB. HALMAHERA BARAT,1.41709,127.55264
8202,82,KAB. HALMAHERA TENGAH,0.48056,128.25
8203,82,KAB. KEPULAUAN SULA,-1.8646,125.69046
8204,82,KAB. HALMAHERA SELATAN,-0.3955,127.90833
8205,82,KAB. HALMAHERA UTARA,1.73194,128.00778
8206,82,KAB. HALMAHERA TIMUR,1.33517,128.48627
8207,82,KAB. PULAU MOROTAI,2.19924,128.40546
8208,82,KAB. PULAU TALIABU,-1.84578,124.78992
8271,82,KOTA TERNATE,0.89618,127.31016
8272,82,KOTA TIDORE KEPULAUAN,0.60962,127.56981
9101,91,KAB. FAK-FAK,-2.92641,132.29608
9102,91,KAB. KAIMANA,-3.66093,133.77451
9103,91,KAB. TELUK WONDAMA,-2.7,134.5
9104,91,KAB. TELUK BINTUNI,-1.88037,133.33105
9105,91,KAB. MANOKWARI,-0.9,133.75
9106,91,KAB. SORONG SELATAN,-1.50495,132.28638
9107,91,KAB. SORONG,-1.16667,131.5
9108,91,KAB. RAJA AMPAT,-0.5,130
9109,91,KAB. TAMBRAUW,-0.60515,132.48962
9110,91,KAB. MAYBRAT,-1.2155,132.35092
9111,91,KAB. MANOKWARI SELATAN,-1.0798,133.96729
9112,91,KAB. PEGUNUNGAN ARFAK,-0.93523,133.89587
9171,91,KOTA SORONG,-0.86507,131.25153
9401,94,KAB. MERAUKE,-7.66667,139.66667
9402,94,KAB. JAYAWIJAYA,-4.08333,139.08333
9403,94,KAB. JAYAPURA,-3,139.95
9404,94,KAB. NABIRE,-3.54016,135.55511
9408,94,KAB. KEPULAUAN YAPEN,-1.78773,136.27716
9409,94,KAB. BIAK NUMFOR,-1.03333,136
9410,94,KAB. PANIAI,-3.9,136.60001
9411,94,KAB. PUNCAK JAYA,-3.67241,137.43896
9412,94,KAB. MIMIKA,-4.54357,136.56555
9413,94,KAB. BOVEN DIGOEL,-5.70519,140.36349
9414,94,KAB. MAPPI,-6.49971,139.34441
9415,94,KAB. ASMAT,-5.3795,138.46344
9416,94,KAB. YAHUKIMO,-4.60403,139.58405
9417,94,KAB. PEGUNUNGAN BINTANG,-4.52167,140.29541
9418,94,KAB. TOLIKARA,-3.42661,137.41699
9419,94,KAB. SARMI,-2.41667,139.08333
9420,94,KAB. KEEROM,-3.3,140.61667
9426,94,KAB. WAROPEN,-2.286,137.01837
9427,94,KAB. SUPIORI,-0.73881,135.61111
9428,94,KAB. MAMBERAMO RAYA,-2.23561,137.78229
9429,94,KAB. NDUGA,-4.45093,138.10089
9430,94,KAB. LANNY JAYA,-3.91244,138.28766
9431,94,KAB. MAMBERAMO TENGAH,-2.46064,138.45245
9432,94,KAB. YALIMO,-3.86037,138.47305
9433,94,KAB. PUNCAK,-4.14204,137.09702
9434,94,KAB. DOGIYAI,-4.03186,135.43945
9435,94,KAB. INTAN JAYA,-3.41016,136.70837
9436,94,KAB. DEIYAI,-3.94737,135.95032
9471,94,KOTA JAYAPURA,-2.64647,140.77779
